<kml xmlns:atom="http://www.w3.org/2005/Atom" xmlns:gx="http://www.google.com/kml/ext/2.2" xmlns="http://www.opengis.net/kml/2.2">
  <Document>
    <Name>CMIP6 contribution</Name>
    <Folder>
      <Placemark>
        <name>CAS</name>
        <Point>
          <coordinates>116.370238,40.0044795</coordinates>
        </Point>
      </Placemark>
      <Placemark>
        <name>NIWA</name>
        <Point>
          <coordinates>174.7967804,-41.304278</coordinates>
        </Point>
      </Placemark>
      <Placemark>
        <name>UA</name>
        <Point>
          <coordinates>-110.950995423,32.2351726</coordinates>
        </Point>
      </Placemark>
      <Placemark>
        <name>INM</name>
        <Point>
          <coordinates>37.6174943,55.7504461</coordinates>
        </Point>
      </Placemark>
      <Placemark>
        <name>ECMWF</name>
        <Point>
          <coordinates>-0.950854653584,51.4198101</coordinates>
        </Point>
      </Placemark>
      <Placemark>
        <name>E3SM-Project</name>
        <Point>
          <coordinates>-121.7063175,37.6816716</coordinates>
        </Point>
      </Placemark>
      <Placemark>
        <name>LLNL</name>
        <Point>
          <coordinates>-121.708309339,37.687781</coordinates>
        </Point>
      </Placemark>
      <Placemark>
        <name>ANL</name>
        <Point>
          <coordinates>-97.6386848,44.0733075</coordinates>
        </Point>
      </Placemark>
      <Placemark>
        <name>BNL</name>
        <Point>
          <coordinates>-72.8712759989,40.87636815</coordinates>
        </Point>
      </Placemark>
      <Placemark>
        <name>LANL</name>
        <Point>
          <coordinates>-106.2989958,35.8814009</coordinates>
        </Point>
      </Placemark>
      <Placemark>
        <name>LBNL</name>
        <Point>
          <coordinates>-122.24893642,37.87695875</coordinates>
        </Point>
      </Placemark>
      <Placemark>
        <name>ORNL</name>
        <Point>
          <coordinates>-84.3124003215,35.93006535</coordinates>
        </Point>
      </Placemark>
      <Placemark>
        <name>PNNL</name>
        <Point>
          <coordinates>-119.2769067,46.2778406</coordinates>
        </Point>
      </Placemark>
      <Placemark>
        <name>SNL</name>
        <Point>
          <coordinates>-106.6509851,35.0841034</coordinates>
        </Point>
      </Placemark>
      <Placemark>
        <name>UHH</name>
        <Point>
          <coordinates>9.99084408558,53.57048615</coordinates>
        </Point>
      </Placemark>
      <Placemark>
        <name>NCC</name>
        <Point>
          <coordinates>10.7213224,59.9426109</coordinates>
        </Point>
      </Placemark>
      <Placemark>
        <name>CICERO</name>
        <Point>
          <coordinates>10.7757291941,59.97239745</coordinates>
        </Point>
      </Placemark>
      <Placemark>
        <name>MET-Norway</name>
        <Point>
          <coordinates>-64.4376782429,-31.6643647347</coordinates>
        </Point>
      </Placemark>
      <Placemark>
        <name>NERSC</name>
        <Point>
          <coordinates>5.3258117,60.3943034</coordinates>
        </Point>
      </Placemark>
      <Placemark>
        <name>NILU</name>
        <Point>
          <coordinates>11.0463826,59.9731544</coordinates>
        </Point>
      </Placemark>
      <Placemark>
        <name>UiB</name>
        <Point>
          <coordinates>5.3258117,60.3943034</coordinates>
        </Point>
      </Placemark>
      <Placemark>
        <name>UiO</name>
        <Point>
          <coordinates>-64.4376782429,-31.6643647347</coordinates>
        </Point>
      </Placemark>
      <Placemark>
        <name>UNI</name>
        <Point>
          <coordinates>5.333397,60.3841508</coordinates>
        </Point>
      </Placemark>
      <Placemark>
        <name>NILU</name>
        <Point>
          <coordinates>11.0463826,59.9731544</coordinates>
        </Point>
      </Placemark>
      <Placemark>
        <name>NILU</name>
        <Point>
          <coordinates>11.0463826,59.9731544</coordinates>
        </Point>
      </Placemark>
      <Placemark>
        <name>CSIRO</name>
        <Point>
          <coordinates>145.1024159,-38.0219105</coordinates>
        </Point>
      </Placemark>
      <Placemark>
        <name>SNU</name>
        <Point>
          <coordinates>126.94892,37.46685</coordinates>
        </Point>
      </Placemark>
      <Placemark>
        <name>KIOST</name>
        <Point>
          <coordinates>129.0399028,35.1157262</coordinates>
        </Point>
      </Placemark>
      <Placemark>
        <name>JAMSTEC</name>
        <Point>
          <coordinates>139.6271352,35.4710257</coordinates>
        </Point>
      </Placemark>
      <Placemark>
        <name>AORI</name>
        <Point>
          <coordinates>140.094391846,35.5787423</coordinates>
        </Point>
      </Placemark>
      <Placemark>
        <name>NIES</name>
        <Point>
          <coordinates>139.2394179,36.5748441</coordinates>
        </Point>
      </Placemark>
      <Placemark>
        <name>R-CCS</name>
        <Point>
          <coordinates>135.1641816,34.6677915</coordinates>
        </Point>
      </Placemark>
      <Placemark>
        <name>DKRZ</name>
        <Point>
          <coordinates>9.97658541171,53.5668648</coordinates>
        </Point>
      </Placemark>
      <Placemark>
        <name>INPE</name>
        <Point>
          <coordinates>-44.9667115385,-22.71</coordinates>
        </Point>
      </Placemark>
      <Placemark>
        <name>RTE-RRTMGP-Consortium</name>
        <Point>
          <coordinates>-71.2668511031,42.4621639832</coordinates>
        </Point>
      </Placemark>
      <Placemark>
        <name>AER</name>
        <Point>
          <coordinates>-71.2245003,42.4473175</coordinates>
        </Point>
      </Placemark>
      <Placemark>
        <name>UColorado</name>
        <Point>
          <coordinates>-105.2705456,40.0149856</coordinates>
        </Point>
      </Placemark>
      <Placemark>
        <name>NCAR</name>
        <Point>
          <coordinates>-105.274866442,39.97788995</coordinates>
        </Point>
      </Placemark>
      <Placemark>
        <name>UofT</name>
        <Point>
          <coordinates>-107.9917071,61.0666922</coordinates>
        </Point>
      </Placemark>
      <Placemark>
        <name>BNU</name>
        <Point>
          <coordinates>116.35970438,39.96014155</coordinates>
        </Point>
      </Placemark>
      <Placemark>
        <name>FIO</name>
        <Point>
          <coordinates>120.3497193,36.0895093</coordinates>
        </Point>
      </Placemark>
      <Placemark>
        <name>QLNM</name>
        <Point>
          <coordinates>120.3497193,36.0895093</coordinates>
        </Point>
      </Placemark>
      <Placemark>
        <name>UTAS</name>
        <Point>
          <coordinates>147.335787119,-42.88614685</coordinates>
        </Point>
      </Placemark>
      <Placemark>
        <name>CCCR-IITM</name>
        <Point>
          <coordinates>72.8607548716,19.19395825</coordinates>
        </Point>
      </Placemark>
      <Placemark>
        <name>EC-Earth-Consortium</name>
        <Point>
          <coordinates>16.1903511,58.5909124</coordinates>
        </Point>
      </Placemark>
      <Placemark>
        <name>CSIRO-ARCCSS-BoM</name>
        <Point>
          <coordinates>145.1024159,-38.0219105</coordinates>
        </Point>
      </Placemark>
      <Placemark>
        <name>DWD</name>
        <Point>
          <coordinates>8.7498225,50.1027281</coordinates>
        </Point>
      </Placemark>
      <Placemark>
        <name>NERC</name>
        <Point>
          <coordinates>-1.1737571,51.7379753</coordinates>
        </Point>
      </Placemark>
      <Placemark>
        <name>NIMS-KMA</name>
        <Point>
          <coordinates>126.515299,33.2572971</coordinates>
        </Point>
      </Placemark>
      <Placemark>
        <name>MESSy-Consortium</name>
        <Point>
          <coordinates>11.2523969,48.0739105</coordinates>
        </Point>
      </Placemark>
      <Placemark>
        <name>CMCC</name>
        <Point>
          <coordinates>18.1718482,40.3570373</coordinates>
        </Point>
      </Placemark>
      <Placemark>
        <name>CSIR</name>
        <Point>
          <coordinates>28.1879444,-25.7459374</coordinates>
        </Point>
      </Placemark>
      <Placemark>
        <name>CSIRO</name>
        <Point>
          <coordinates>149.1012676,-35.2975906</coordinates>
        </Point>
      </Placemark>
      <Placemark>
        <name>NOAA-GFDL</name>
        <Point>
          <coordinates>-74.6592958,40.3492744</coordinates>
        </Point>
      </Placemark>
      <Placemark>
        <name>BCC</name>
        <Point>
          <coordinates>116.3912757,39.906217</coordinates>
        </Point>
      </Placemark>
      <Placemark>
        <name>MOHC</name>
        <Point>
          <coordinates>-3.4734942,50.7267597</coordinates>
        </Point>
      </Placemark>
      <Placemark>
        <name>CNRM</name>
        <Point>
          <coordinates>1.4442469,43.6044622</coordinates>
        </Point>
      </Placemark>
      <Placemark>
        <name>CERFACS</name>
        <Point>
          <coordinates>1.4442469,43.6044622</coordinates>
        </Point>
      </Placemark>
      <Placemark>
        <name>MRI</name>
        <Point>
          <coordinates>139.9347523,35.9896345</coordinates>
        </Point>
      </Placemark>
      <Placemark>
        <name>PCMDI</name>
        <Point>
          <coordinates>-121.708309339,37.687781</coordinates>
        </Point>
      </Placemark>
      <Placemark>
        <name>AWI</name>
        <Point>
          <coordinates>8.5797669,53.5328312</coordinates>
        </Point>
      </Placemark>
      <Placemark>
        <name>IPSL</name>
        <Point>
          <coordinates>2.3514992,48.8566101</coordinates>
        </Point>
      </Placemark>
      <Placemark>
        <name>CAMS</name>
        <Point>
          <coordinates>116.3912757,39.906217</coordinates>
        </Point>
      </Placemark>
      <Placemark>
        <name>NASA-GISS</name>
        <Point>
          <coordinates>-73.954525,40.7642499</coordinates>
        </Point>
      </Placemark>
      <Placemark>
        <name>AS-RCEC</name>
        <Point>
          <coordinates>121.6141109,25.0565646</coordinates>
        </Point>
      </Placemark>
      <Placemark>
        <name>AER</name>
        <Point>
          <coordinates>-71.2668511031,42.4621639832</coordinates>
        </Point>
      </Placemark>
      <Placemark>
        <name>CCCma</name>
        <Point>
          <coordinates>-107.9917071,61.0666922</coordinates>
        </Point>
      </Placemark>
      <Placemark>
        <name>MPI-M</name>
        <Point>
          <coordinates>10.0099133,53.5437641</coordinates>
        </Point>
      </Placemark>
      <Placemark>
        <name>THU</name>
        <Point>
          <coordinates>116.320989082,40.00229045</coordinates>
        </Point>
      </Placemark>
      <Placemark>
        <name>NUIST</name>
        <Point>
          <coordinates>117.3523949,24.5167811</coordinates>
        </Point>
      </Placemark>
    </Folder>
  </Document>
</kml>
